[settings]
data_dir = "data"
public_dir = "public"
database = "data/mothdash.db"
session_cutoff_hour = 12
timezone = "America/New_York"
recent_limit = 50
taxon_scope = "moths"
user_agent = "moth-station-dashboard/0.1"
custom_domain = "moth-stations.kingfisher-hollow.com"
stats_refresh_limit = 80
regional_watch_radius_km = 100
regional_watch_days = 14
regional_watch_cache_hours = 168

[[stations]]
id = "kingfisher"
name = "Kingfisher Hollow"
enabled = true
project_id = 249580
county_place_id = 653
state_place_id = 48
color = "#e5bd4e"
timezone = "America/New_York"
public_location = "Tioga County, NY"
regional_watch_lat = 42.2754988111
regional_watch_lng = -76.4900674308
notes = "Seed station from the Kingfisher Hollow Biodiversity Survey."

[[stations]]
id = "bosque-neimi"
name = "Bosque Neimi"
enabled = true
project_id = "bosque-neimi"
county_place_id = 1082
state_place_id = 48
color = "#21a5a0"
timezone = "America/New_York"
public_location = "Tompkins County, NY"
regional_watch_lat = 42.5060786746
regional_watch_lng = -76.4242173891
website = "https://www.inaturalist.org/projects/bosque-neimi"
notes = "iNaturalist project station."

[[stations]]
id = "dombroskie-homestead"
name = "Dombroskie Homestead"
enabled = true
project_id = "dombroskie-homestead-inventory"
county_place_id = 1082
state_place_id = 48
color = "#dc6689"
timezone = "America/New_York"
public_location = "Tompkins County, NY"
regional_watch_lat = 42.3909717983
regional_watch_lng = -76.3739675701
website = "https://www.inaturalist.org/projects/dombroskie-homestead-inventory"
notes = "iNaturalist project station."

[[stations]]
id = "zeledonia-monkey-run"
name = "Monkey Run"
enabled = true
user_login = "zeledonia"
place_id = 114200
county_place_id = 1082
state_place_id = 48
color = "#836fc5"
timezone = "America/New_York"
public_location = "Monkey Run, Tompkins County, NY"
regional_watch_lat = 42.4659299981
regional_watch_lng = -76.430064759
website = "https://www.inaturalist.org/people/zeledonia"
notes = "Moth observations by zeledonia at Monkey Run."

[[stations]]
id = "iandavies-dove-dr"
name = "Dove Dr"
enabled = true
user_login = "iandavies"
lat = 42.4263383333
lng = -76.45073
radius = 0.1
public_live_precise_query = true
county_place_id = 1082
state_place_id = 48
color = "#438fca"
timezone = "America/New_York"
public_location = "Dove Dr area, Tompkins County, NY"
regional_watch_lat = 42.4263383333
regional_watch_lng = -76.45073
website = "https://www.inaturalist.org/people/iandavies"
notes = "Moth observations by iandavies within 100 m of Dove Dr."

[[stations]]
id = "palpebrata-second-st"
name = "Second St"
enabled = true
project_id = "second-street"
county_place_id = 1842
state_place_id = 48
color = "#35ad6b"
timezone = "America/New_York"
public_location = "Second St area, Monroe County, NY"
regional_watch_lat = 43.3233056913
regional_watch_lng = -77.7173089959
website = "https://www.inaturalist.org/projects/second-street"
notes = "Moth observations from the Second Street iNaturalist project."

[[stations]]
id = "durfee-hill"
name = "Durfee Hill"
enabled = true
active = false
place_id = 120907
county_place_id = 1082
state_place_id = 48
color = "#a4bd49"
timezone = "America/New_York"
public_location = "Durfee Hill, Tompkins County, NY"
regional_watch_lat = 42.3619645862
regional_watch_lng = -76.4548541319
website = "https://www.inaturalist.org/places/durfee-hill"
notes = "Moth observations from the iNaturalist Durfee Hill place. No longer actively surveyed; historical records are kept."

[[stations]]
id = "tompkins-map-area"
name = "Woodlawn"
enabled = true
nelat = 42.39261448208384
nelng = -76.41085160470544
swlat = 42.39049089489255
swlng = -76.41319585538446
county_place_id = 1082
state_place_id = 48
color = "#df7542"
timezone = "America/New_York"
public_location = "Woodlawn, Tompkins County, NY"
regional_watch_lat = 42.3915526885
regional_watch_lng = -76.41202373
notes = "Moth observations from the supplied iNaturalist map bounding box."
